[{"datasetid": "estacion-de-policia@bogota-laburbano", "recordid": "56beb9c4d09b6427d640baef0d5b1bc8f7672977", "fields": {"objectid": 18, "eponombre": "ESTACION DE POLICIA SAN CRISTOBAL", "geo_point_2d": [4.569978002183859, -74.0857720005767], "epotelefon": "3282000", "epodirecci": "Avenida Primero de Mayo 1E - 90", "geo_shape": {"type": "Point", "coordinates": [-74.0857720005767, 4.569978002183859]}, "epobarrio": "GRANADA SUR"}, "geometry": {"type": "Point", "coordinates": [-74.0857720005767, 4.569978002183859]}, "record_timestamp": "2017-09-04T15:14:03-05:00"},{"datasetid": "estacion-de-policia@bogota-laburbano", "recordid": "09a232ebd44deed3f11fc759526b39a0131bbc80", "fields": {"objectid": 1, "eponombre": "ESTACION DE POLICIA ANTONIO NARI\u00d1O", "geo_point_2d": [4.587206000757134, -74.10482600061874], "epotelefon": "0", "epodirecci": "Carrera 24  18-90 Sur", "geo_shape": {"type": "Point", "coordinates": [-74.10482600061874, 4.587206000757134]}, "epobarrio": "RESTREPO OCCIDENTAL"}, "geometry": {"type": "Point", "coordinates": [-74.10482600061874, 4.587206000757134]}, "record_timestamp": "2017-09-04T15:14:03-05:00"},{"datasetid": "estacion-de-policia@bogota-laburbano", "recordid": "30f58ca035014042648bafcce277763b91c52289", "fields": {"objectid": 14, "eponombre": "ESTACION DE POLICIA USAQUEN", "geo_point_2d": [4.741638000694024, -74.0253040008783], "epotelefon": "0", "epodirecci": "Calle 165 con Carrera 8 A", "geo_shape": {"type": "Point", "coordinates": [-74.0253040008783, 4.741638000694024]}, "epobarrio": "SAN CRISTOBAL NORTE"}, "geometry": {"type": "Point", "coordinates": [-74.0253040008783, 4.741638000694024]}, "record_timestamp": "2017-09-04T15:14:03-05:00"},{"datasetid": "estacion-de-policia@bogota-laburbano", "recordid": "b9cb9d31337cd953ec9fdc106b5a3dde00291a28", "fields": {"objectid": 21, "eponombre": "ESTACION DE POLICIA TERMINAL", "geo_point_2d": [4.651159100912593, -74.11456880060899], "epotelefon": "4233630", "epodirecci": "Diagonal 22 A   68D-90 M\u00f3dulo 5", "geo_shape": {"type": "Point", "coordinates": [-74.11456880060899, 4.651159100912593]}}, "geometry": {"type": "Point", "coordinates": [-74.11456880060899, 4.651159100912593]}, "record_timestamp": "2017-09-04T15:14:03-05:00"},{"datasetid": "estacion-de-policia@bogota-laburbano", "recordid": "9a2f5942e9cfdb890cb96df91859cd0674ea871b", "fields": {"objectid": 20, "eponombre": "ESTACION DE POLICIA AEROPUERTO", "geo_point_2d": [4.694960300578259, -74.1415317013263], "epotelefon": "4397070", "epodirecci": "Avenida Calle 26   116-87", "geo_shape": {"type": "Point", "coordinates": [-74.1415317013263, 4.694960300578259]}}, "geometry": {"type": "Point", "coordinates": [-74.1415317013263, 4.694960300578259]}, "record_timestamp": "2017-09-04T15:14:03-05:00"},{"datasetid": "estacion-de-policia@bogota-laburbano", "recordid": "f20b65880b961c8a7e6a54efd71a5b06020d1827", "fields": {"objectid": 3, "eponombre": "ESTACION DE POLICIA BOSA", "geo_point_2d": [4.600122001030342, -74.18665000129585], "epotelefon": "7807255", "epodirecci": "Calle 65J  77  -23 Sur", "geo_shape": {"type": "Point", "coordinates": [-74.18665000129585, 4.600122001030342]}, "epobarrio": "ESTACION BOSA"}, "geometry": {"type": "Point", "coordinates": [-74.18665000129585, 4.600122001030342]}, "record_timestamp": "2017-09-04T15:14:03-05:00"},{"datasetid": "estacion-de-policia@bogota-laburbano", "recordid": "8e258dfba964e72647a1a5c32e10a934c381ed3b", "fields": {"objectid": 4, "eponombre": "ESTACION DE POLICIA CIUDAD BOLIVAR", "geo_point_2d": [4.577017001234423, -74.16439500112773], "epotelefon": "7310060", "epodirecci": "Diagoal. 70   54-14 Sur", "geo_shape": {"type": "Point", "coordinates": [-74.16439500112773, 4.577017001234423]}, "epobarrio": "SIERRA MORENA"}, "geometry": {"type": "Point", "coordinates": [-74.16439500112773, 4.577017001234423]}, "record_timestamp": "2017-09-04T15:14:03-05:00"},{"datasetid": "estacion-de-policia@bogota-laburbano", "recordid": "e36e6ed1f710ee7d904d451345c10db262c3ee86", "fields": {"objectid": 5, "epocpolici": "E10-2", "eponombre": "ESTACION DE POLICIA ENGATIVA", "geo_point_2d": [4.690114000661424, -74.10274700097267], "epotelefon": "4368494", "epodirecci": "Carrera 78A  70-54", "geo_shape": {"type": "Point", "coordinates": [-74.10274700097267, 4.690114000661424]}, "epobarrio": "SANTA HELENITA"}, "geometry": {"type": "Point", "coordinates": [-74.10274700097267, 4.690114000661424]}, "record_timestamp": "2017-09-04T15:14:03-05:00"},{"datasetid": "estacion-de-policia@bogota-laburbano", "recordid": "073b1b689f82ff18f931ebb7d25273a24ee95dee", "fields": {"objectid": 6, "eponombre": "ESTACION DE POLICIA FONTIBON", "geo_point_2d": [4.668056000584783, -74.14855300081967], "epotelefon": "4184710", "epodirecci": "Carrera 98  16B - 50", "geo_shape": {"type": "Point", "coordinates": [-74.14855300081967, 4.668056000584783]}, "epobarrio": "SAN PEDRO"}, "geometry": {"type": "Point", "coordinates": [-74.14855300081967, 4.668056000584783]}, "record_timestamp": "2017-09-04T15:14:03-05:00"},{"datasetid": "estacion-de-policia@bogota-laburbano", "recordid": "537f327aacd5632eb4d2f764fddbe79671c0eafe", "fields": {"objectid": 8, "eponombre": "ESTACION DE POLICIA LOS MARTIRES", "geo_point_2d": [4.608972000857988, -74.08903000063333], "epotelefon": "2478788", "epodirecci": "Carrera 24   12-32", "geo_shape": {"type": "Point", "coordinates": [-74.08903000063333, 4.608972000857988]}, "epobarrio": "LA SABANA"}, "geometry": {"type": "Point", "coordinates": [-74.08903000063333, 4.608972000857988]}, "record_timestamp": "2017-09-04T15:14:03-05:00"},{"datasetid": "estacion-de-policia@bogota-laburbano", "recordid": "ca52368a03ee381fd02f27cac9e61c01d41597e2", "fields": {"objectid": 9, "eponombre": "ESTACION DE POLICIA PUENTE ARANDA", "geo_point_2d": [4.617708000824393, -74.10238900065121], "epotelefon": "0", "epodirecci": "Carrera 39  10-75", "geo_shape": {"type": "Point", "coordinates": [-74.10238900065121, 4.617708000824393]}, "epobarrio": "LOS EJIDOS"}, "geometry": {"type": "Point", "coordinates": [-74.10238900065121, 4.617708000824393]}, "record_timestamp": "2017-09-04T15:14:03-05:00"},{"datasetid": "estacion-de-policia@bogota-laburbano", "recordid": "38cbe540fb37fb6d668f7f2f27f209826585e308", "fields": {"objectid": 13, "eponombre": "ESTACION DE POLICIA TUNJUELITO", "geo_point_2d": [4.585573000994031, -74.13340400099321], "epotelefon": "0", "epodirecci": "Trasversal 33   48C 21 Sur", "geo_shape": {"type": "Point", "coordinates": [-74.13340400099321, 4.585573000994031]}, "epobarrio": "ESCUELA GENERAL SANTANDER"}, "geometry": {"type": "Point", "coordinates": [-74.13340400099321, 4.585573000994031]}, "record_timestamp": "2017-09-04T15:14:03-05:00"},{"datasetid": "estacion-de-policia@bogota-laburbano", "recordid": "73b71ef25ec65d3c977495a0efb732d93236bc84", "fields": {"objectid": 15, "epocpolici": "E05-27", "eponombre": "ESTACION DE POLICIA DE USME", "geo_point_2d": [4.500960002103227, -74.11772600105343], "epotelefon": "7625917", "epodirecci": "Avenida Usme 97A 96 Sur", "geo_shape": {"type": "Point", "coordinates": [-74.11772600105343, 4.500960002103227]}, "epobarrio": "EL MORTINO"}, "geometry": {"type": "Point", "coordinates": [-74.11772600105343, 4.500960002103227]}, "record_timestamp": "2017-09-04T15:14:03-05:00"},{"datasetid": "estacion-de-policia@bogota-laburbano", "recordid": "a7153e1fc4853739967aaaad245e4a5ddba8f885", "fields": {"objectid": 16, "eponombre": "ESTACION DE POLICIA LA CANDELARIA", "geo_point_2d": [4.591392002239956, -74.07888100115662], "epotelefon": "2806316", "epodirecci": "Carrera 7   6A-12", "geo_shape": {"type": "Point", "coordinates": [-74.07888100115662, 4.591392002239956]}, "epobarrio": "CENTRO ADMINISTRATIVO"}, "geometry": {"type": "Point", "coordinates": [-74.07888100115662, 4.591392002239956]}, "record_timestamp": "2017-09-04T15:14:03-05:00"},{"datasetid": "estacion-de-policia@bogota-laburbano", "recordid": "9ff68a9564a255bbd121d29bc74e0a3d31b55d92", "fields": {"objectid": 17, "eponombre": "ESTACION DE POLICIA CHAPINERO", "geo_point_2d": [4.641420000733262, -74.0581580005906], "epotelefon": "3484488", "epodirecci": "Carrera 1  57-00", "geo_shape": {"type": "Point", "coordinates": [-74.0581580005906, 4.641420000733262]}, "epobarrio": "MARIA CRISTINA"}, "geometry": {"type": "Point", "coordinates": [-74.0581580005906, 4.641420000733262]}, "record_timestamp": "2017-09-04T15:14:03-05:00"},{"datasetid": "estacion-de-policia@bogota-laburbano", "recordid": "ac68a1f95cb3a244278ada9fa05a814ae20c388d", "fields": {"objectid": 19, "eponombre": "ESTACION DE POLICIA RAFAEL URIBE URIBE", "geo_point_2d": [4.585445001386517, -74.11059100117308], "epotelefon": "0", "epodirecci": "Calle 27 Sur  24 H - 49", "geo_shape": {"type": "Point", "coordinates": [-74.11059100117308, 4.585445001386517]}, "epobarrio": "OLAYA"}, "geometry": {"type": "Point", "coordinates": [-74.11059100117308, 4.585445001386517]}, "record_timestamp": "2017-09-04T15:14:03-05:00"},{"datasetid": "estacion-de-policia@bogota-laburbano", "recordid": "5ce9fb2dc5c3f0808c2c6716282414136f13143b", "fields": {"objectid": 11, "epocpolici": "E11-88", "eponombre": "ESTACION DE POLICIA SUBA", "geo_point_2d": [4.741374001110102, -74.08501000140978], "epotelefon": "6850646", "epodirecci": "Carrera 92  146C-39", "geo_shape": {"type": "Point", "coordinates": [-74.08501000140978, 4.741374001110102]}, "epobarrio": "LAS FLORES"}, "geometry": {"type": "Point", "coordinates": [-74.08501000140978, 4.741374001110102]}, "record_timestamp": "2017-09-04T15:14:03-05:00"},{"datasetid": "estacion-de-policia@bogota-laburbano", "recordid": "eecc8e31ccb8d9fc32cf456ecd883412921a6e3d", "fields": {"objectid": 12, "eponombre": "ESTACION DE POLICIA TEUSAQUILLO", "geo_point_2d": [4.628770001035547, -74.06695800081042], "epotelefon": "0", "epodirecci": "Carrera 13  40a-26", "geo_shape": {"type": "Point", "coordinates": [-74.06695800081042, 4.628770001035547]}, "epobarrio": "SUCRE"}, "geometry": {"type": "Point", "coordinates": [-74.06695800081042, 4.628770001035547]}, "record_timestamp": "2017-09-04T15:14:03-05:00"},{"datasetid": "estacion-de-policia@bogota-laburbano", "recordid": "357cc3c0a498c245305e42abc959e4d38fc04bd3", "fields": {"objectid": 7, "eponombre": "ESTACION DE POLICIA KENNEDY", "geo_point_2d": [4.619622000955416, -74.15900800091782], "epotelefon": "2739099", "epodirecci": "Calle 41 D  78 -05 Sur", "geo_shape": {"type": "Point", "coordinates": [-74.15900800091782, 4.619622000955416]}, "epobarrio": "CENTRO CIVICO CIUDAD KENNEDY"}, "geometry": {"type": "Point", "coordinates": [-74.15900800091782, 4.619622000955416]}, "record_timestamp": "2017-09-04T15:14:03-05:00"},{"datasetid": "estacion-de-policia@bogota-laburbano", "recordid": "e48d4276aeeffbcdbcd8dbaaf50e3194de8fb1b5", "fields": {"objectid": 2, "eponombre": "ESTACION DE POLICIA BARRIOS UNIDOS", "geo_point_2d": [4.674072001022864, -74.08174100084585], "epotelefon": "2861257", "epodirecci": "Calle 72   62-81", "geo_shape": {"type": "Point", "coordinates": [-74.08174100084585, 4.674072001022864]}, "epobarrio": "SAN FERNANDO OCCIDENTAL"}, "geometry": {"type": "Point", "coordinates": [-74.08174100084585, 4.674072001022864]}, "record_timestamp": "2017-09-04T15:14:03-05:00"},{"datasetid": "estacion-de-policia@bogota-laburbano", "recordid": "c78fe30b272c200cbda57eb4f77bfe9bf3125e11", "fields": {"objectid": 10, "eponombre": "ESTACION DE POLICIA SANTA FE", "geo_point_2d": [4.602779002150043, -74.06602400090622], "epotelefon": "3361524", "epodirecci": "Calle 19A  0-75", "geo_shape": {"type": "Point", "coordinates": [-74.06602400090622, 4.602779002150043]}, "epobarrio": "LAS AGUAS"}, "geometry": {"type": "Point", "coordinates": [-74.06602400090622, 4.602779002150043]}, "record_timestamp": "2017-09-04T15:14:03-05:00"}]